{
  "locations": [
    {
      "lat": 55.7512,
      "lon": 37.6184,
      "title": "Москва",
      "description": "Столица России, сердце культурной и деловой жизни, ключевая точка в годы Великой Отечественной войны.",
      "image": "moscow.jpg"
    },
    {
      "lat": 44.3981,
      "lon": 48.6486,
      "title": "Сталинград (Волгоград)",
      "description": "Город, ставший символом героической обороны во время Сталинградской битвы.",
      "image": "stalgrad.jpg"
    },
    {
      "lat": 59.9343,
      "lon": 30.3351,
      "title": "Ленинград (Санкт-Петербург)",
      "description": "Город, переживший блокаду, ставшую одной из самых трагичных страниц в истории Великой Отечественной войны.",
      "image": "leningrad.jpg"
    },
    {
      "lat": 49.1451,
      "lon": 55.7955,
      "title": "Казанский нефтехимический завод ПАО «Татнефть»",
      "description": "Ключевой объект ПАО «Татнефть», производящий нефть и нефтехимию для нужд промышленности и обороны.",
      "image": "tatsneft_kazan.jpg"
    },
    {
      "lat": 51.9553,
      "lon": 55.5797,
      "title": "Нижнекамск, ПАО «Татнефть»",
      "description": "Центр нефтяной и химической промышленности, важный для экономики страны.",
      "image": "tatsneft_nizhnekamsk.jpg"
    }
  ]
}
